[
    {
        "name": "Halbert Welling Center",
        "category": "ACU Interesting Place",
        "city": "Abilene",
        "state": "Texas",
        "id": 1001,
        "isFeatured": false,
        "isFavorite": false,
        "park": "park ",
        "coordinates": {
            "longitude": -99.708981,
            "latitude": 32.467120
        },
        "imageName": "halbertwelling"
    },
    {
        "name": "College of Business Administration",
        "category": "ACU Interesting Place",
        "city": "Abilene",
        "state": "Texas",
        "id": 1002,
        "isFeatured": false,
        "isFavorite": false,
        "park": "park park ",
        "coordinates": {
            "longitude": -99.707019,
            "latitude": 32.467713
        },
        "imageName": "coba"
    },
    {
        "name": "World Famous Bean",
        "category": "ACU Interesting Place",
        "city": "Abilene",
        "state": "Texas",
        "id": 1003,
        "isFeatured": false,
        "isFavorite": true,
        "park": "park park park ",
        "coordinates": {
            "longitude": -99.708462,
            "latitude": 32.469010
        },
        "imageName": "bean"
    },
    {
        "name": "Hunter Welcome Center",
        "category": "ACU Interesting Place",
        "city": "Abilene",
        "state": "Texas",
        "id": 1004,
        "isFeatured": true,
        "isFavorite": true,
        "park": "park park park park ",
        "coordinates": {
            "longitude": -99.705416,
            "latitude": 32.470612
        },
        "imageName": "hunter"
    },
    {
        "name": "Edwards hall",
        "category": "ACU Dorm",
        "city": "Abilene",
        "state": "Texas",
        "id": 1005,
        "isFeatured": false,
        "isFavorite": false,
        "park": "park park park park park ",
        "coordinates": {
            "longitude": -99.709773,
            "latitude": 32.470250
        },
        "imageName": "edwards"
    },
    {
        "name": "Mabee Hall",
        "category": "ACU Dorm",
        "city": "Abilene",
        "state": "Texas",
        "id": 1006,
        "isFeatured": false,
        "isFavorite": false,
        "park": "park park park park park park ",
        "coordinates": {
            "longitude": -99.709740,
            "latitude": 32.469549
        },
        "imageName": "mabee"
    },
    {
        "name": "Morris Hall",
        "category": "ACU Dorm",
        "city": "Abilene",
        "state": "Texas",
        "id": 1007,
        "isFeatured": true,
        "isFavorite": false,
        "park": "park park park park park park park ",
        "coordinates": {
            "longitude": -99.707353,
            "latitude": 32.470733
        },
        "imageName": "morris",
    },
    {
        "name": "Smith Adams Hall",
        "category": "ACU Dorm",
        "city": "Abilene",
        "state": "Texas",
        "id": 1008,
        "isFeatured": false,
        "isFavorite": false,
        "park": "park park park park park park park park ",
        "coordinates": {
            "longitude": -99.714942,
            "latitude": 32.464159
        },
        "imageName": "smith"
    },
    {
        "name": "Sundance Parking Lot 3",
        "category": "Fort Worth",
        "city": "Fort Worth",
        "state": "Texas",
        "id": 1009,
        "isFeatured": false,
        "isFavorite": false,
        "park": "park park park park park park park park park ",
        "coordinates": {
            "longitude": -97.333641,
            "latitude": 32.754177
        },
        "imageName": "sundance2"
    },
    {
        "name": "Tarrant County Parking Garage",
        "category": "Fort Worth",
        "city": "Fort Worth",
        "state": "Texas",
        "id": 1010,
        "isFeatured": true,
        "isFavorite": true,
        "park": "park park park park park park park park park park ",
        "coordinates": {
            "longitude": -97.330823,
            "latitude": 32.757868,
        },
        "imageName": "tarrant"
    },
    {
        "name": "Fort Worth Stockyards",
        "category": "Fort Worth",
        "city": "Fort Worth",
        "state": "Texas",
        "id": 1011,
        "isFeatured": true,
        "isFavorite": true,
        "park": "park park park park park park park park park park park ",
        "coordinates": {
            "longitude": -97.346074,
            "latitude": 32.791004
        },
        "imageName": "stockyards"
    },
    {
        "name": "Academy",
        "category": "Fort Worth",
        "city": "Fort Worth",
        "state": "Texas",
        "id": 1012,
        "isFeatured": false,
        "isFavorite": false,
        "park": "park park park park park park park park park park park park ",
        "coordinates": {
            "longitude": -97.260928,
            "latitude": 32.893460
            
        },
        "imageName": "academy"
    }
]
